,City,Lat,Lng,Max Temp,Humidity,Cloudiness,Wind Speed,Country,Date
0,hermanus,-34.4187,19.2345,63.98,91,5,3.53,ZA,1612489893
1,ponta do sol,32.6667,-17.1,48.97,67,83,1.34,PT,1612490167
2,flinders,-34.5833,150.8552,83.98,70,13,3.13,AU,1612490226
3,asau,46.4333,26.4,37.38,87,40,3.09,RO,1612490557
4,huanren,41.2647,125.3667,23.18,93,91,3.22,CN,1612490557
5,busselton,-33.65,115.3333,65.98,40,2,0.89,AU,1612490157
6,yellowknife,62.456,-114.3525,-29.02,75,1,3.09,CA,1612490178
7,tuatapere,-46.1333,167.6833,67.17,53,94,2.71,NZ,1612490267
8,hambantota,6.1241,81.1185,69.78,100,40,1.54,LK,1612490557
9,fare,-16.7,-151.0167,82.07,64,0,2.84,PF,1612490291
10,mahebourg,-20.4081,57.7,75.18,83,20,1.03,MU,1612490557
11,klaksvik,62.2266,-6.589,33.78,64,20,6.69,FO,1612490557
12,matara,5.9485,80.5353,74.33,86,31,2.07,LK,1612490558
13,kitimat,54.0524,-128.6534,31.98,100,90,2.57,CA,1612490558
14,punta arenas,-53.15,-70.9167,49.98,62,20,8.75,CL,1612490309
15,tilichiki,60.4667,166.1,-3.19,93,98,7.09,RU,1612490558
16,castro,-24.7911,-50.0119,65.08,95,0,1.95,BR,1612490177
17,cidreira,-30.1811,-50.2056,68.54,76,20,7.28,BR,1612490193
18,kodiak,57.79,-152.4072,30.18,80,1,2.06,US,1612490149
19,griffith,41.5284,-87.4237,28.38,93,90,7.2,US,1612490559
20,butaritari,3.0707,172.7902,80.17,84,98,6.06,KI,1612489906
21,tobermory,45.2501,-81.6665,33.78,44,100,4.12,CA,1612490559
22,chokurdakh,70.6333,147.9167,-14.53,86,96,9.03,RU,1612490157
23,albany,42.6001,-73.9662,28.38,69,20,1.19,US,1612490171
24,san patricio,28.017,-97.5169,69.78,78,20,7.2,US,1612490169
25,puerto narino,-3.7703,-70.3831,75.18,100,75,0.88,CO,1612490559
26,rikitea,-23.1203,-134.9692,78.65,68,100,5.08,PF,1612490153
27,minna,9.6139,6.5569,78.78,18,0,4.12,NG,1612490560
28,port alfred,-33.5906,26.891,65.98,89,41,3.43,ZA,1612490166
29,kapaa,22.0752,-159.319,67.98,64,90,4.12,US,1612490560
30,bluff,-46.6,168.3333,58.26,71,100,4.86,NZ,1612490470
31,longview,32.5007,-94.7405,53.58,64,1,5.14,US,1612490560
32,jamestown,42.097,-79.2353,35.98,44,1,5.66,US,1612490166
33,east london,-33.0153,27.9116,72.71,74,88,2.65,ZA,1612490148
34,saint-georges,12.0564,-61.7485,78.78,83,20,6.17,GD,1612490561
35,port elizabeth,-33.918,25.5701,62.58,88,0,2.66,ZA,1612490132
36,ushuaia,-54.8,-68.3,46.38,81,20,15.43,AR,1612490409
37,puerto ayora,-0.7393,-90.3518,76.98,94,18,1.34,EC,1612489907
38,dikson,73.5069,80.5464,-8.14,91,100,4.91,RU,1612490154
39,vwawa,-9.1167,32.9333,59.41,93,83,0.89,TZ,1612490561
40,sao joao da barra,-21.6403,-41.0511,77.47,82,0,8.96,BR,1612490092
41,hilo,19.7297,-155.09,73.38,68,90,6.17,US,1612490159
42,mataura,-46.1927,168.8643,74.14,41,99,0.95,NZ,1612490562
43,san cristobal,7.7669,-72.225,82.38,65,40,1.03,VE,1612489994
44,bredasdorp,-34.5322,20.0403,62.58,88,4,1.54,ZA,1612490154
45,bagan,54.1001,77.6646,7.36,91,98,2.74,RU,1612490562
46,pevek,69.7008,170.3133,-13.61,78,72,2.38,RU,1612490175
47,la asuncion,11.0333,-63.8628,77.43,82,98,7.38,VE,1612490563
48,touros,-5.1989,-35.4608,78.78,78,0,4.63,BR,1612490160
49,te anau,-45.4167,167.7167,74.35,37,42,0.93,NZ,1612490185
50,itarema,-2.9248,-39.9167,78.42,81,88,5.18,BR,1612490174
51,arlit,18.7369,7.3853,62.49,27,99,3.16,NE,1612490563
52,luganville,-15.5333,167.1667,84.34,67,100,3.0,VU,1612490199
53,chapais,49.7834,-74.8492,15.78,86,1,2.02,CA,1612490208
54,pyay,18.8167,95.2167,75.36,40,0,2.06,MM,1612490563
55,bambous virieux,-20.3428,57.7575,77.99,78,20,2.57,MU,1612490164
56,new norfolk,-42.7826,147.0587,81.98,55,100,1.34,AU,1612489898
57,vardo,70.3705,31.1107,27.98,90,99,9.05,NO,1612490223
58,aginskoye,51.1,114.53,8.22,90,0,5.04,RU,1612490564
59,saldanha,-33.0117,17.9442,60.78,82,0,3.6,ZA,1612490172
60,eyrarbakki,63.863,-21.1481,37.38,65,40,10.8,IS,1612490564
61,avarua,-21.2078,-159.775,84.18,70,75,1.54,CK,1612489876
62,lebu,-37.6167,-73.65,61.05,79,0,1.09,CL,1612489915
63,campoverde,-8.4753,-74.8058,76.98,94,75,1.03,PE,1612490565
64,kununurra,-15.7667,128.7333,89.58,70,40,4.63,AU,1612490165
65,beringovskiy,63.05,179.3167,-0.38,92,100,3.81,RU,1612490565
66,iqaluit,63.7506,-68.5145,13.98,79,90,6.17,CA,1612490211
67,airai,-8.9266,125.4092,66.34,98,98,2.28,TL,1612489928
68,beni,0.5,29.4667,66.45,78,100,1.55,CD,1612490565
69,cabo san lucas,22.8909,-109.9124,78.78,29,40,4.37,MX,1612490042
70,lompoc,34.6391,-120.4579,53.58,76,1,3.6,US,1612490565
71,yibin,28.7667,104.6238,57.04,68,9,0.75,CN,1612490566
72,arraial do cabo,-22.9661,-42.0278,77.27,83,27,12.52,BR,1612490150
73,veseloyarsk,51.2836,81.1056,22.91,98,100,4.27,RU,1612490566
74,anadyr,64.75,177.4833,4.98,78,40,15.0,RU,1612490230
75,yaan,7.3833,8.5667,74.91,20,0,2.12,NG,1612490566
76,atuona,-9.8,-139.0333,78.85,72,4,4.74,PF,1612489888
77,manta,-0.95,-80.7333,76.98,94,90,1.54,EC,1612490566
78,lanxi,29.2195,119.477,50.07,85,97,0.32,CN,1612490567
79,manggar,-2.8833,108.2667,83.42,71,80,4.92,ID,1612490567
80,kaputa,-8.4689,29.6619,67.3,84,68,1.07,ZM,1612490567
81,hobart,-42.8794,147.3294,81.98,73,75,7.2,AU,1612490007
82,ambulu,-8.345,113.6058,83.64,70,7,0.99,ID,1612490567
83,bukama,-9.2,25.85,68.68,88,100,1.0,CD,1612490567
84,ukiah,39.1502,-123.2078,55.38,54,1,3.09,US,1612490336
85,matelandia,-25.2408,-53.9964,71.58,94,0,4.12,BR,1612490568
86,middletown,39.5151,-84.3983,36.98,100,90,7.72,US,1612490507
87,labrea,-7.2586,-64.7981,77.0,92,100,0.49,BR,1612490568
88,tuktoyaktuk,69.4541,-133.0374,-34.62,67,40,4.63,CA,1612490282
89,georgetown,5.4112,100.3354,80.58,69,20,3.19,MY,1612489956
90,natal,-5.795,-35.2094,78.78,78,0,3.6,BR,1612490568
91,cape town,-33.9258,18.4232,66.97,82,0,4.63,ZA,1612490353
92,luderitz,-26.6481,15.1594,66.83,61,0,7.55,NA,1612490159
93,karagaylinskiy,54.172,86.5521,6.26,92,100,1.19,RU,1612490569
94,luwuk,-0.9516,122.7875,82.97,72,100,0.88,ID,1612490569
95,upernavik,72.7868,-56.1549,-5.59,70,99,2.51,GL,1612490160
96,laguna,38.421,-121.4238,60.78,31,1,3.09,US,1612490096
97,chekhov,55.1431,37.4711,16.99,96,100,6.1,RU,1612490569
98,palana,59.1167,159.9667,4.75,96,98,0.74,RU,1612490569
99,clyde river,70.4692,-68.5914,-20.22,76,90,7.72,CA,1612490569
100,lagoa,39.05,-27.9833,54.23,73,71,9.5,PT,1612490185
101,palmer,42.1584,-72.3287,22.98,93,20,1.29,US,1612490205
102,kindu,-2.95,25.95,68.7,92,50,0.21,CD,1612490570
103,ribeira grande,38.5167,-28.7,55.47,69,43,8.69,PT,1612489912
104,thompson,55.7435,-97.8558,-9.42,77,90,3.6,CA,1612489897
105,narsaq,60.9167,-46.05,13.98,52,86,2.06,GL,1612490173
106,rapid valley,44.0625,-103.1463,31.98,43,90,6.17,US,1612490196
107,faya,18.3851,42.4509,55.38,62,0,4.12,SA,1612490570
108,fairbanks,64.8378,-147.7164,-13.02,70,20,0.56,US,1612489922
109,diu,20.7141,70.9822,65.33,40,34,2.02,IN,1612490571
110,hun,29.1268,15.9477,55.97,87,0,3.09,LY,1612490571
111,contamana,-7.3333,-75.0167,74.26,96,100,0.23,PE,1612490571
112,mar del plata,-38.0023,-57.5575,64.97,72,20,4.12,AR,1612489964
113,nikolskoye,59.7035,30.7861,7.99,85,75,4.0,RU,1612490158
114,marawi,7.9986,124.2928,81.98,78,72,1.34,PH,1612490571
115,tasiilaq,65.6145,-37.6368,26.58,80,75,4.63,GL,1612490172
116,oranjemund,-28.55,16.4333,62.11,93,64,4.75,NA,1612490572
117,krupina,48.3554,19.0647,37.97,86,92,0.28,SK,1612490572
118,salta,-24.7859,-65.4117,69.78,56,75,3.09,AR,1612490546
119,vaasa,63.096,21.6158,1.38,92,40,0.51,FI,1612490572
120,kruisfontein,-34.0033,24.7314,62.98,94,0,1.42,ZA,1612490194
121,dongsheng,39.8161,109.9776,29.28,78,0,11.41,CN,1612490185
122,naze,28.3667,129.4833,66.18,55,20,2.57,JP,1612489929
123,yar-sale,66.8333,70.8333,-21.97,87,3,2.76,RU,1612490573
124,khatanga,71.9667,102.5,-30.84,78,0,4.28,RU,1612490161
125,sursk,53.0754,45.6846,36.98,99,100,5.29,RU,1612490573
126,champerico,14.3,-91.9167,68.99,93,9,2.84,GT,1612490573
127,amantea,39.1332,16.0746,53.98,76,100,5.14,IT,1612490573
128,monchegorsk,67.9397,32.8739,9.98,94,94,3.54,RU,1612490573
129,daru,-9.0763,143.2092,88.97,63,59,4.79,PG,1612490573
130,mananara,-16.1667,49.7667,74.78,90,16,1.66,MG,1612490573
131,kaitangata,-46.2817,169.8464,59.99,71,67,5.36,NZ,1612490171
132,norman wells,65.282,-126.8329,-43.62,66,75,1.03,CA,1612490168
133,port lincoln,-34.7333,135.8667,63.52,67,99,9.52,AU,1612490560
134,carnarvon,-24.8667,113.6333,78.78,76,90,7.72,AU,1612490164
135,provideniya,64.3833,-173.3,-5.33,89,100,12.16,RU,1612490157
136,kainantu,-6.2887,145.8655,74.8,68,54,0.49,PG,1612490574
137,rio grande,-32.035,-52.0986,67.98,77,20,5.66,BR,1612490334
138,lasa,46.6166,10.7002,38.98,86,0,2.57,IT,1612490574
139,obo,5.3998,26.4869,69.62,36,33,1.14,CF,1612490574
140,vaini,-21.2,-175.2,82.38,89,90,3.6,TO,1612490164
141,ypsonas,34.6884,32.9574,55.38,71,0,1.54,CY,1612490575
142,hithadhoo,-0.6,73.0833,82.34,76,100,4.78,MV,1612489898
143,sitka,57.0531,-135.33,37.38,93,20,8.75,US,1612490144
144,terrace,54.5163,-128.6035,31.98,100,90,2.57,CA,1612490296
145,codrington,-38.2667,141.9667,63.3,58,52,4.66,AU,1612490165
146,baruun-urt,46.6806,113.2792,9.37,93,29,3.55,MN,1612490576
147,pampa,35.5362,-100.9599,39.18,33,1,2.06,US,1612490513
148,zhigansk,66.7697,123.3711,-41.66,76,0,5.32,RU,1612490183
149,inhambane,-23.865,35.3833,79.99,85,32,1.43,MZ,1612490156
150,half moon bay,37.4636,-122.4286,55.38,62,1,4.12,US,1612490576
151,vanimo,-2.6741,141.3028,87.02,63,50,2.36,PG,1612490576
152,tevaitoa,-16.7833,-151.5,81.89,66,0,2.84,PF,1612490577
153,wanxian,30.8039,108.3897,53.24,72,70,0.52,CN,1612490577
154,bathsheba,13.2167,-59.5167,78.78,65,20,8.23,BB,1612490577
155,antofagasta,-23.65,-70.4,66.18,77,20,4.63,CL,1612490577
156,ussel,45.55,2.3167,47.98,55,88,1.01,FR,1612490577
157,goderich,43.7501,-81.7165,31.98,55,100,7.72,CA,1612490218
158,alofi,-19.0595,-169.9187,82.38,83,75,5.14,NU,1612490211
159,martapura,-3.4167,114.85,78.78,89,40,2.06,ID,1612489936
160,petropavlovsk-kamchatskiy,53.0452,158.6483,13.98,44,20,2.0,RU,1612490164
161,doctor arroyo,23.6667,-100.1833,67.17,22,0,3.08,MX,1612490283
162,ruidoso,33.3317,-105.673,44.58,33,75,2.57,US,1612490578
163,bethel,41.3712,-73.414,27.98,80,1,0.94,US,1612489971
164,yanam,16.7333,82.2167,67.98,94,20,3.09,IN,1612490229
165,leh,34.1667,77.5833,6.15,61,100,1.29,IN,1612490579
166,barrow,71.2906,-156.7887,-29.22,68,40,4.12,US,1612489977
167,tiksi,71.6872,128.8694,-20.02,88,100,3.26,RU,1612490168
168,tadine,-21.55,167.8833,81.95,77,0,6.48,NC,1612490580
169,chernyshevskiy,63.0128,112.4714,-33.79,85,98,1.38,RU,1612490203
170,hami,42.8,93.45,28.34,85,0,1.23,CN,1612490122
171,waupun,43.6333,-88.7296,30.18,93,90,5.66,US,1612490580
172,birnin kebbi,12.4539,4.1975,71.94,21,0,4.96,NG,1612490580
173,biak,-0.9131,122.8766,81.16,73,100,0.64,ID,1612490185
174,port hardy,50.6996,-127.4199,42.78,100,90,2.57,CA,1612490581
175,bengkulu,-3.8004,102.2655,82.36,68,27,1.48,ID,1612490496
176,waipawa,-41.4122,175.5153,58.98,77,90,8.23,NZ,1612490203
177,aanekoski,62.6946,25.818,2.98,84,0,2.57,FI,1612490584
178,saskylakh,71.9167,114.0833,-36.89,77,47,1.17,RU,1612489888
179,ayotzintepec,17.6667,-96.1333,68.66,68,0,1.45,MX,1612490584
180,burkburnett,34.0979,-98.5706,47.98,60,1,5.14,US,1612490585
181,seydisehir,37.4193,31.8453,39.65,72,0,0.85,TR,1612490585
182,ambon,-3.6954,128.1814,85.98,70,20,4.12,ID,1612490585
183,gat,31.61,34.7642,55.97,100,100,0.45,IL,1612490102
184,nelson bay,-32.7167,152.15,84.97,54,20,5.66,AU,1612490586
185,tigzirt,36.8886,4.1198,60.69,46,70,5.31,DZ,1612490586
186,stornoway,58.2093,-6.3865,37.38,81,90,10.8,GB,1612490491
187,laela,-8.5667,32.05,60.26,92,95,0.93,TZ,1612490586
188,hondo,32.45,130.2,44.58,81,75,3.09,JP,1612490180
189,mount gambier,-37.8333,140.7667,64.38,59,40,7.72,AU,1612490175
190,muros,42.7762,-9.0603,46.97,93,99,2.44,ES,1612490230
191,atikokan,48.7555,-91.6216,5.21,93,100,4.37,CA,1612490587
192,vaitape,-16.5167,-151.75,81.73,67,16,3.06,PF,1612490235
193,puerto guzman,0.9703,-76.5858,73.81,88,98,0.59,CO,1612490588
194,qianguo,45.1171,124.8568,14.86,96,94,4.14,CN,1612490588
195,tshane,-24.0196,21.8684,69.82,81,100,3.9,BW,1612490588
196,ust-nera,64.5667,143.2,-18.4,79,98,3.19,RU,1612490184
197,singaparna,-7.3515,108.111,79.5,71,100,0.76,ID,1612490589
198,puerto madryn,-42.7692,-65.0385,83.15,25,0,11.01,AR,1612490589
199,megion,61.0296,76.1136,-0.42,85,40,2.0,RU,1612490589
200,zhaotong,27.3167,103.7167,39.88,73,100,2.03,CN,1612490589
201,salalah,17.0151,54.0924,69.78,73,40,2.06,OM,1612489923
202,sao filipe,14.8961,-24.4956,71.58,75,100,5.11,CV,1612490162
203,kavieng,-2.5744,150.7967,83.41,75,90,1.95,PG,1612490178
204,atar,20.5169,-13.0499,61.68,39,100,3.02,MR,1612490226
205,praia da vitoria,38.7333,-27.0667,51.98,87,75,8.41,PT,1612490590
206,dolores,-36.3132,-57.6792,58.8,78,0,4.36,AR,1612490590
207,salina,38.8403,-97.6114,30.97,74,1,4.12,US,1612490479
208,ancud,-41.8697,-73.8203,71.58,49,0,4.12,CL,1612489995
209,gornopravdinsk,60.05,69.9,10.58,95,100,2.9,RU,1612490591
210,javanrud,34.7961,46.5172,44.2,86,100,1.16,IR,1612490414
211,labuhan,-6.8844,112.2051,82.51,79,84,8.62,ID,1612490591
212,korla,41.7597,86.1469,24.82,79,34,1.91,CN,1612490206
213,pechora,65.1472,57.2244,0.46,92,100,3.1,RU,1612490592
214,faanui,-16.4833,-151.75,81.73,67,16,3.0,PF,1612490174
215,katsuura,35.1333,140.3,46.38,36,20,1.54,JP,1612490208
216,nampula,-15.1165,39.2666,73.38,94,75,0.36,MZ,1612490592
217,visby,57.6409,18.296,23.99,74,90,5.66,SE,1612490222
218,walvis bay,-22.9575,14.5053,65.98,82,1,2.57,NA,1612490356
219,ketovo,55.355,65.3258,32.02,99,100,3.14,RU,1612490593
220,cherskiy,68.75,161.3,-6.29,77,98,4.06,RU,1612490189
221,oskemen,49.9565,82.6119,26.58,86,90,1.0,KZ,1612490593
222,nouakchott,18.0858,-15.9785,64.38,88,0,6.69,MR,1612490593
223,port moresby,-9.4431,147.1797,89.58,58,75,4.12,PG,1612490228
224,richards bay,-28.783,32.0377,73.94,90,76,3.8,ZA,1612490094
225,axim,4.8699,-2.2405,79.16,88,0,3.01,GH,1612490594
226,valleyview,55.0667,-117.2859,-4.02,77,100,2.57,CA,1612490594
227,yantzaza,-3.8278,-78.7594,69.28,84,100,0.44,EC,1612490595
228,zhanakorgan,43.9098,67.2495,36.8,78,100,4.57,KZ,1612490595
229,qaanaaq,77.484,-69.3632,-20.06,61,56,3.53,GL,1612490595
230,taltal,-25.4,-70.4833,64.7,77,42,1.09,CL,1612490216
231,tsaratanana,-16.7833,47.65,72.7,84,100,1.47,MG,1612490595
232,yerofey pavlovich,53.9667,121.9667,-12.88,82,66,0.94,RU,1612490596
233,manzhouli,49.6,117.4333,9.61,89,0,8.4,CN,1612490596
234,nouadhibou,20.931,-17.0347,64.38,88,64,3.6,MR,1612490596
235,hanover,52.3705,9.7332,37.97,100,75,3.6,DE,1612490425
236,beloha,-25.1667,45.05,77.86,74,3,3.41,MG,1612490229
237,talnakh,69.4865,88.3972,-22.97,86,100,0.43,RU,1612490173
238,svetlaya,46.5389,138.3297,7.39,79,100,3.53,RU,1612490204
239,sikasso,10.9167,-7.0,72.01,21,0,0.79,ML,1612490597
240,werder,52.3787,12.934,32.99,89,100,0.45,DE,1612490598
241,umm lajj,25.0213,37.2685,68.9,50,0,2.99,SA,1612490598
242,birao,10.2849,22.7882,74.14,20,53,6.03,CF,1612490598
243,srednekolymsk,67.45,153.6833,-7.37,83,100,7.46,RU,1612490180
244,owando,-0.4819,15.8999,72.44,92,97,0.97,CG,1612490598
245,cap malheureux,-19.9842,57.6142,77.99,76,3,1.79,MU,1612490599
246,erenhot,43.6475,111.9767,20.68,93,77,4.78,CN,1612490599
247,morehead,37.2711,-87.1764,46.38,81,90,6.17,US,1612490599
248,ugoofaaru,5.6667,73.0,81.39,71,100,3.25,MV,1612490599
249,bonavista,48.6499,-53.1147,39.18,100,95,1.03,CA,1612490236
250,khorramshahr,30.4397,48.1664,62.58,72,20,3.09,IR,1612490599
251,davila,18.4726,120.5763,78.78,65,20,3.6,PH,1612490600
252,kastrakion,39.7156,21.6181,36.98,96,100,0.7,GR,1612490600
253,aksarka,66.5606,67.7975,-23.35,87,61,2.25,RU,1612490600
254,dumai,1.6833,101.45,80.81,67,92,1.66,ID,1612490600
255,mugla,37.2303,28.3557,51.78,100,0,1.54,TR,1612490600
256,los llanos de aridane,28.6585,-17.9182,60.78,44,20,2.06,ES,1612489906
257,biltine,14.5333,20.9167,64.42,27,0,9.04,TD,1612490601
258,zigong,29.3416,104.7769,54.19,73,0,1.27,CN,1612490601
259,camacha,33.0833,-16.3333,53.58,71,75,5.66,PT,1612490158
260,troitskoye,52.9821,84.6757,8.53,92,100,0.6,RU,1612490601
261,dingle,10.9995,122.6711,81.98,79,83,6.87,PH,1612490601
262,orlik,52.5178,99.825,1.45,83,100,1.54,RU,1612490601
263,seidu,9.0167,-10.6,70.73,67,0,1.55,SL,1612490601
264,nalut,30.3333,10.85,54.16,42,0,5.36,LY,1612490602
265,longyearbyen,78.2186,15.6401,17.58,67,75,5.14,SJ,1612490199
266,fortuna,40.5982,-124.1573,49.98,76,1,5.14,US,1612490187
267,gainesville,29.6516,-82.3248,50.99,37,1,2.06,US,1612490516
268,tautira,-17.7333,-149.15,82.38,65,20,1.03,PF,1612489927
269,karnobat,42.65,26.9833,49.98,93,0,2.06,BG,1612490602
270,asosa,10.0667,34.5333,63.55,29,22,3.63,ET,1612490603
271,vestmannaeyjar,63.4427,-20.2734,39.79,72,100,13.45,IS,1612490182
272,guarapari,-20.6667,-40.4975,78.98,83,20,4.63,BR,1612490603
273,pisco,-13.7,-76.2167,71.98,78,0,6.69,PE,1612490032
274,santa catarina de tepehuanes,25.35,-105.7333,57.36,37,33,3.41,MX,1612490603
275,saint-philippe,-21.3585,55.7679,78.78,73,90,2.57,RE,1612490163
276,sorong,-0.8833,131.25,83.98,69,100,2.26,ID,1612490604
277,kota belud,6.351,116.4305,82.38,78,20,1.54,MY,1612490407
278,severo-kurilsk,50.6789,156.125,13.57,85,86,4.39,RU,1612489907
279,isangel,-19.55,169.2667,85.98,70,75,2.57,VU,1612489978
280,ndele,8.4109,20.6473,75.14,20,8,3.88,CF,1612490335
281,charters towers,-20.1,146.2667,87.64,51,86,4.97,AU,1612490604
282,ust-kuyga,70.0167,135.6,-26.16,83,4,3.12,RU,1612490605
283,lorengau,-2.0226,147.2712,80.44,80,100,3.38,PG,1612490224
284,kaka,37.3482,59.6143,46.24,49,30,1.93,TM,1612490605
285,russell,32.3502,-85.1999,53.58,57,75,4.3,US,1612490094
286,jonesboro,35.8423,-90.7043,40.98,65,1,6.69,US,1612490605
287,northam,51.0333,-4.2167,42.98,95,23,2.68,GB,1612490196
288,henties bay,-22.116,14.2845,65.98,84,9,0.89,NA,1612490605
289,sire,12.9299,5.2043,70.09,22,0,5.75,NG,1612490605
290,san policarpo,12.1791,125.5072,81.39,85,96,7.82,PH,1612490187
291,shenjiamen,29.9576,122.298,52.21,88,98,3.85,CN,1612490606
292,acapulco,16.8634,-99.8901,80.58,78,75,3.09,MX,1612490206
293,husavik,66.0449,-17.3389,26.58,63,0,4.12,IS,1612489964
294,kedrovyy,56.1667,91.8167,1.38,85,0,1.0,RU,1612490165
295,comrie,56.3791,-3.9949,40.98,94,100,4.92,GB,1612490606
296,campo maior,-4.8278,-42.1686,77.54,79,89,2.91,BR,1612490606
297,ormara,25.2088,64.6357,68.2,30,0,2.86,PK,1612490607
298,taua,-5.9667,-40.3,78.37,49,19,4.74,BR,1612490607
299,kutum,14.2,24.6667,51.98,42,0,5.62,SD,1612490607
300,fort saint james,54.4333,-124.25,17.49,96,100,0.99,CA,1612490193
301,bud,39.447,-86.1758,37.97,97,100,8.0,US,1612490607
302,ilulissat,69.2167,-51.1,1.38,35,20,4.12,GL,1612490199
303,bandarbeyla,9.4942,50.8122,70.63,70,17,4.81,SO,1612490204
304,atambua,-9.1061,124.8925,74.82,91,100,1.62,ID,1612490608
305,umea,63.8284,20.2597,21.18,86,75,5.14,SE,1612490608
306,tynda,55.1667,124.7167,-19.19,82,81,1.25,RU,1612490608
307,gamba,-2.65,10.0,78.17,88,100,0.89,GA,1612490167
308,rudsar,37.1376,50.288,48.18,93,75,3.35,IR,1612490608
309,mission,26.2159,-98.3253,74.98,73,1,5.14,US,1612490608
310,kudahuvadhoo,2.6708,72.8944,81.46,75,100,7.72,MV,1612490163
311,aromashevo,56.8602,68.6375,19.04,97,100,3.33,RU,1612490609
312,ulladulla,-35.35,150.4667,82.38,57,75,4.63,AU,1612490207
313,torbay,47.6666,-52.7314,39.97,100,90,6.17,CA,1612489922
314,vanderhoof,54.0166,-124.0198,21.05,97,100,1.83,CA,1612490609
315,yerbogachen,61.2767,108.0108,-23.57,86,88,0.64,RU,1612490610
316,mount isa,-20.7333,139.5,94.98,41,75,7.72,AU,1612490085
317,koksovyy,48.1967,40.5989,44.11,87,100,6.13,RU,1612490610
318,constitucion,-35.3333,-72.4167,59.41,91,80,1.16,CL,1612490456
319,mineiros,-17.5694,-52.5511,71.89,85,100,0.59,BR,1612490610
320,hasaki,35.7333,140.8333,46.38,36,20,5.14,JP,1612490205
321,cotonou,6.3654,2.4183,84.18,84,40,4.63,BJ,1612490610
322,weligama,5.9667,80.4167,74.59,87,20,2.03,LK,1612490611
323,ketchikan,55.3422,-131.6461,39.18,100,40,2.06,US,1612490407
324,wawa,9.9022,4.4192,74.19,22,0,1.56,NG,1612490611
325,dafeng,23.4517,108.5881,70.54,44,0,2.9,CN,1612490611
326,port blair,11.6667,92.75,81.34,74,4,5.86,IN,1612490226
327,lavrentiya,65.5833,-171.0,-7.69,89,100,8.5,RU,1612490176
328,north port,27.0442,-82.2359,54.98,76,1,1.43,US,1612490612
329,victoria,22.2855,114.1577,68.99,74,44,1.34,HK,1612489895
330,rauma,61.1272,21.5113,6.78,78,0,2.06,FI,1612490612
331,grand forks,47.9417,-97.4337,6.78,78,90,9.77,US,1612490612
332,shubarkuduk,49.1447,56.4872,32.79,94,97,3.43,KZ,1612490612
333,hobyo,5.3505,48.5268,76.21,78,62,7.66,SO,1612490396
334,kirakira,-10.4544,161.9205,84.67,73,68,4.81,SB,1612490612
335,hokitika,-42.7167,170.9667,65.51,66,11,3.13,NZ,1612490613
336,korisos,40.5,21.3833,54.98,61,100,2.06,GR,1612490613
337,qiryat shemona,33.2073,35.5721,62.58,77,40,3.6,IL,1612490613
338,hudson bay,52.85,-102.3842,-4.79,90,100,2.43,CA,1612490613
339,huarmey,-10.0681,-78.1522,70.27,77,87,2.44,PE,1612490190
340,dalvik,65.9702,-18.5286,26.58,63,0,4.12,IS,1612490613
341,dwarka,22.2394,68.9678,67.58,49,0,6.0,IN,1612490613
342,avera,33.194,-82.5271,49.98,43,1,2.06,US,1612490156
343,hamilton,39.1834,-84.5333,36.98,80,90,8.23,US,1612490447
344,kuvandyk,51.4781,57.3552,34.57,96,100,2.3,RU,1612490614
345,eyl,7.9803,49.8164,68.09,80,5,5.69,SO,1612490170
346,moose factory,51.2585,-80.6094,33.78,59,90,5.14,CA,1612490332
347,bahia honda,22.9036,-83.1592,63.17,65,0,1.66,CU,1612490614
348,kizilskoye,52.7255,58.8937,35.17,96,100,3.4,RU,1612490614
349,jupiter,26.9342,-80.0942,62.98,87,90,3.67,US,1612490614
350,enid,36.3956,-97.8784,39.18,52,1,1.54,US,1612490452
351,jackson,42.4165,-122.8345,40.98,81,0,1.12,US,1612490214
352,okhtyrka,50.3104,34.8988,27.07,96,100,9.61,UA,1612490615
353,kortkeros,61.8106,51.5806,19.38,86,90,4.0,RU,1612490615
354,paamiut,61.994,-49.6678,17.99,74,0,2.33,GL,1612490170
355,falam,22.9167,93.6833,58.73,50,0,0.38,MM,1612490615
356,saint george,37.1041,-113.5841,49.98,27,1,3.6,US,1612490167
357,manokwari,-0.8667,134.0833,83.06,72,100,3.12,ID,1612490222
358,dunkwa,5.9656,-1.78,75.56,90,3,0.32,GH,1612490616
359,terrell,32.736,-96.2753,51.98,54,1,2.57,US,1612490527
360,wewak,-3.5534,143.6268,85.71,66,12,2.57,PG,1612490616
361,muisne,0.6,-80.0333,76.58,90,100,2.74,EC,1612490616
362,souillac,-20.5167,57.5167,76.98,78,20,2.57,MU,1612490161
363,saint-francois,46.4154,3.9054,44.98,100,90,0.98,FR,1612490616
364,katherine,-14.4667,132.2667,82.38,74,75,2.57,AU,1612490385
365,san quintin,30.4833,-115.95,57.92,73,82,6.71,MX,1612490617
366,kaoma,-14.7833,24.8,63.53,94,45,1.48,ZM,1612490617
367,buala,-8.145,159.5921,85.94,68,2,3.77,SB,1612490182
368,the hammocks,25.6715,-80.4445,64.38,68,1,2.06,US,1612490617
369,xinyu,27.8043,114.9334,56.08,83,98,1.58,CN,1612490617
370,coquimbo,-29.9533,-71.3436,60.78,88,90,3.6,CL,1612490215
371,pirae,-17.5167,-149.5333,82.38,65,20,1.03,PF,1612490618
372,jinchang,38.4953,102.1739,35.42,53,0,2.72,CN,1612490618
373,watsa,3.0372,29.5355,70.52,59,59,0.82,CD,1612490618
374,aklavik,68.2191,-135.0107,-40.02,67,75,1.54,CA,1612490180
375,port augusta,-32.5,137.7667,73.38,40,90,9.77,AU,1612490619
376,carballo,43.213,-8.691,46.97,96,97,0.45,ES,1612490619
377,maragogi,-9.0122,-35.2225,78.01,82,22,4.15,BR,1612490619
378,lynn haven,30.2455,-85.6483,60.98,72,90,6.17,US,1612490619
379,namibe,-15.1961,12.1522,70.63,72,0,2.96,AO,1612490161
380,vila franca do campo,37.7167,-25.4333,53.98,71,40,4.63,PT,1612489949
381,genhe,50.7833,121.5167,-1.84,88,92,1.13,CN,1612490620
382,urengoy,65.9667,78.3667,-24.22,86,54,2.94,RU,1612490620
383,sabang,5.8933,95.3214,81.41,76,12,10.47,ID,1612490167
384,hovd,48.0056,91.6419,17.11,81,97,2.37,MN,1612490620
385,mangrol,21.1167,70.1167,64.18,55,0,5.71,IN,1612490620
386,luanda,-8.8368,13.2343,78.78,78,75,2.06,AO,1612490149
387,la rioja,42.25,-2.5,42.78,93,100,0.65,ES,1612490226
388,hirara,24.8,125.2833,71.58,53,20,5.14,JP,1612490621
389,ninh binh,20.2539,105.975,71.08,68,16,2.29,VN,1612490621
390,ahipara,-35.1667,173.1667,69.37,67,100,2.53,NZ,1612490216
391,chuy,-33.6971,-53.4616,66.14,81,100,6.24,UY,1612490187
392,khonsa,27.0167,95.5667,61.07,58,0,0.34,IN,1612490621
393,vila velha,-20.3297,-40.2925,78.98,78,20,4.63,BR,1612490180
394,mapastepec,15.4333,-92.9,73.43,73,0,0.51,MX,1612490622
395,tessalit,20.1986,1.0114,67.22,22,69,7.29,ML,1612490184
396,sarangani,5.4033,125.4636,81.75,79,100,8.86,PH,1612490212
397,chalus,36.655,51.4204,46.38,100,90,3.39,IR,1612490622
398,leshukonskoye,64.8989,45.7622,2.48,93,100,4.8,RU,1612490622
399,katangli,51.7102,143.2326,-6.25,87,100,7.52,RU,1612490622
400,bolu,40.6667,31.5833,42.76,86,88,2.39,TR,1612490622
401,nanortalik,60.1432,-45.2371,21.4,78,100,3.69,GL,1612490014
402,beisfjord,68.3751,17.5988,22.98,93,75,0.51,NO,1612490623
403,bonga,7.2833,36.2333,59.66,61,52,0.55,ET,1612490623
404,kita,13.0349,-9.4895,71.26,19,12,1.07,ML,1612490623
405,emerald,-23.5333,148.1667,87.98,51,90,3.6,AU,1612490164
406,santa isabel do rio negro,-0.4139,-65.0192,76.93,87,100,0.88,BR,1612490623
407,esperance,-33.8667,121.9,62.58,51,90,5.66,AU,1612490161
408,mana,5.6592,-53.7767,77.0,81,31,5.76,GF,1612490192
409,ouadda,8.0777,22.4007,73.16,21,0,3.35,CF,1612490624
410,evensk,61.95,159.2333,1.29,90,100,8.49,RU,1612490624
411,kamenka,51.3223,42.7678,37.97,97,100,6.3,RU,1612490624
412,olafsvik,64.8945,-23.7142,38.01,83,100,16.0,IS,1612490624
413,laives,46.4228,11.3348,38.98,83,100,0.44,IT,1612490624
414,cockburn town,21.4612,-71.1419,73.38,64,40,3.09,TC,1612490624
415,tucurui,-3.7661,-49.6725,75.85,86,29,2.19,BR,1612490178
416,tazovskiy,67.4667,78.7,-24.45,87,100,3.4,RU,1612490175
417,lokoja,7.8024,6.743,76.1,21,0,0.93,NG,1612490625
418,mirnyy,62.5353,113.9611,-31.02,84,100,1.69,RU,1612490625
419,camara de lobos,32.6333,-16.9667,55.38,62,40,3.6,PT,1612490625
420,karratha,-20.7377,116.8463,84.68,70,40,6.17,AU,1612490195
421,saint-augustin,51.226,-58.6502,34.54,96,100,5.78,CA,1612490167
422,pangai,-19.8,-174.35,80.58,89,75,5.14,TO,1612490625
423,santa cruz de la palma,28.6835,-17.7642,60.78,44,20,2.06,ES,1612490626
424,arawa,-6.2132,155.5367,88.52,60,9,2.38,PG,1612490626
425,penzance,50.1186,-5.5371,46.38,93,40,5.14,GB,1612490626
426,batagay,67.6333,134.6333,-36.01,80,100,0.82,RU,1612490626
427,coihaique,-45.5752,-72.0662,69.78,46,0,2.57,CL,1612490214
428,oistins,13.0667,-59.5333,78.78,65,20,8.23,BB,1612490626
429,bonnyville,54.2668,-110.735,4.98,72,90,5.14,CA,1612490626
430,lindenhurst,40.6868,-73.3735,35.98,69,1,3.09,US,1612490625
431,kalengwa,-13.4659,25.0027,61.93,97,32,1.22,ZM,1612490627
432,tingo maria,-9.2895,-76.0088,69.26,81,100,0.48,PE,1612490627
433,piacabucu,-10.4056,-36.4344,78.38,81,43,5.21,BR,1612490627
434,robe,-37.1833,139.75,62.08,62,41,8.88,AU,1612490627
435,beoumi,7.6736,-5.5764,78.78,78,11,5.14,CI,1612490628
436,coos bay,43.3665,-124.2179,46.38,87,1,5.66,US,1612490628
437,khasan,42.4308,130.6434,18.64,94,83,2.21,RU,1612490628
438,neiafu,-18.65,-173.9833,82.38,89,75,4.63,TO,1612490628
439,tala,30.6803,30.9429,54.62,95,0,4.51,EG,1612490628
440,haines junction,60.7522,-137.5108,-18.42,76,30,0.26,CA,1612490198
441,madang,-5.2246,145.7966,86.81,65,41,2.33,PG,1612490628
442,nurota,40.5614,65.6886,39.18,75,100,5.14,UZ,1612490628
443,north branch,45.5113,-92.9802,12.18,72,75,5.14,US,1612490628
444,okrika,4.7416,7.0849,78.78,94,20,1.38,NG,1612490629
445,rodnykove,45.043,33.9541,45.98,72,51,1.34,UA,1612490629
446,kourou,5.1552,-52.6478,76.98,94,75,2.57,GF,1612490629
447,padang,-0.9492,100.3543,82.38,78,20,1.03,ID,1612490596
448,metapan,14.3333,-89.45,66.67,61,0,1.59,SV,1612490629
449,stromness,58.965,-3.296,37.38,70,40,10.29,GB,1612490629
450,meulaboh,4.1363,96.1285,79.63,75,33,1.83,ID,1612490189
451,carauari,-4.8828,-66.8958,75.4,95,100,0.75,BR,1612490224
452,panguna,-6.3164,155.4848,83.19,66,28,1.34,PG,1612490337
453,porto walter,-8.2686,-72.7439,74.48,92,99,1.26,BR,1612490630
454,muroto,33.2833,134.15,48.18,43,40,3.6,JP,1612490630
455,huilong,31.8111,121.655,48.97,76,100,1.34,CN,1612490522
456,aykhal,66.0,111.5,-36.01,80,12,2.11,RU,1612490218
457,livingston,55.9029,-3.5226,42.78,93,90,4.63,GB,1612490545
458,bilma,18.6853,12.9164,59.81,32,0,3.27,NE,1612490630
459,chicama,-7.8447,-79.1469,73.43,65,97,1.79,PE,1612490424
460,broken hill,-31.95,141.4333,69.78,35,40,3.6,AU,1612490168
461,ahuimanu,21.4447,-157.8378,73.38,53,90,5.14,US,1612490631
462,killybegs,54.6333,-8.45,39.97,94,99,2.24,IE,1612490631
463,impfondo,1.6381,18.0667,71.94,83,91,1.05,CG,1612490631
464,prince rupert,54.3161,-130.3201,39.18,100,90,1.54,CA,1612490198
465,matay,28.419,30.7792,55.29,88,0,4.9,EG,1612490632
466,dong hoi,17.4833,106.6,71.49,82,40,4.12,VN,1612490450
467,baisha,26.5222,110.9311,57.97,79,82,1.17,CN,1612490632
468,khandbari,27.3747,87.2039,56.08,38,0,0.83,NP,1612490632
469,aloleng,16.1307,119.7824,81.71,58,49,2.78,PH,1612490632
470,nangomba,-10.9,38.5,70.5,97,42,1.3,TZ,1612490632
471,peterhead,57.5058,-1.7981,39.18,93,90,8.75,GB,1612490633
472,lingsugur,16.1667,76.5167,62.31,74,44,3.87,IN,1612490633
473,kamareddi,18.3167,78.35,60.2,59,40,2.38,IN,1612490633
474,vaxjo,56.8777,14.8091,9.98,92,0,1.54,SE,1612490399
475,portland,45.5234,-122.6762,44.98,87,90,3.6,US,1612490307
476,zeven,53.3,9.2833,32.99,65,100,1.79,DE,1612490633
477,marzuq,14.4,46.4667,54.46,63,0,1.6,YE,1612490192
478,geraldton,-28.7667,114.6,78.78,29,100,10.8,AU,1612489946
479,magadan,59.5667,150.8,-2.29,83,78,6.74,RU,1612490593
480,voh,-20.9667,164.7,82.42,79,16,3.55,NC,1612490634
481,port hedland,-20.3167,118.5667,85.13,69,43,4.74,AU,1612490634
482,ambilobe,-13.2,49.05,73.58,93,85,0.85,MG,1612490179
483,missoula,47.0166,-113.8009,31.98,100,90,1.54,US,1612490402
484,mama,58.3106,112.8986,-0.73,86,100,0.71,RU,1612490635
485,tura,25.5198,90.2201,64.52,53,0,1.09,IN,1612490176
486,sehithwa,-20.4667,22.7167,69.65,90,100,2.12,BW,1612490224
487,cotofanesti,46.15,26.9833,37.38,87,40,3.09,RO,1612490635
488,yulin,22.6333,110.15,67.33,59,2,2.64,CN,1612490635
489,vigrestad,58.5667,5.7,15.98,57,0,3.09,NO,1612490635
490,mamallapuram,12.6264,80.1722,69.78,83,20,3.55,IN,1612490636
491,fos-sur-mer,43.4377,4.9446,49.98,87,0,2.06,FR,1612490636
492,kashi,39.4547,75.9797,28.38,59,0,4.0,CN,1612490174
493,bowen,-20.0167,148.2333,85.98,62,75,4.63,AU,1612490636
494,malanje,-9.5402,16.341,62.4,97,99,0.88,AO,1612490636
495,pavlysh,48.9176,33.3569,27.89,94,93,11.01,UA,1612490636
496,lucapa,-8.4192,20.7447,64.97,95,37,0.83,AO,1612490636
497,beaufort,5.3473,115.7455,82.38,78,20,1.03,MY,1612490425
498,port pirie,-33.1833,138.0167,73.38,40,90,9.77,AU,1612490637
499,dunedin,-45.8742,170.5036,55.97,69,84,10.73,NZ,1612489974
500,quesnel,52.9999,-122.5029,28.38,100,90,2.78,CA,1612490234
501,krasnoselkup,65.7,82.4667,-25.78,86,22,2.86,RU,1612490637
502,kahului,20.8947,-156.47,71.58,68,90,5.66,US,1612489904
503,grindavik,63.8424,-22.4338,37.38,87,75,12.86,IS,1612489923
504,pascagoula,30.3658,-88.5561,64.38,72,75,2.57,US,1612490637
505,nawada,24.8833,85.5333,48.18,87,0,2.06,IN,1612490638
506,rojhan,28.6868,69.9534,49.12,62,0,1.21,PK,1612490638
507,berberati,4.2612,15.7922,67.22,27,9,1.69,CF,1612490638
508,atasu,48.6814,71.6433,17.94,95,83,3.71,KZ,1612490216
509,peleduy,59.6289,112.7406,-10.99,88,99,0.33,RU,1612490638
510,kieta,-6.2167,155.6333,85.93,67,66,3.02,PG,1612490179
511,calgary,51.0501,-114.0853,21.97,86,90,7.2,CA,1612490401
512,srandakan,-7.9386,110.2506,79.03,83,98,0.78,ID,1612490639
513,udachnyy,66.4167,112.4,-40.02,78,8,1.57,RU,1612490480
514,mudhol,16.35,75.2833,63.86,60,15,3.39,IN,1612490639
515,concepcion,-36.827,-73.0498,58.98,94,90,4.12,CL,1612490639
516,pucallpa,-8.3791,-74.5539,76.98,94,75,1.03,PE,1612490639
517,shingu,33.7333,135.9833,48.18,43,40,5.14,JP,1612490193
518,santa maria,-29.6842,-53.8069,63.66,93,1,1.13,BR,1612490438
519,lake charles,30.2131,-93.2044,65.98,88,75,4.63,US,1612490554
520,ushumun,52.7833,126.5333,-13.85,87,99,1.22,RU,1612490639
521,kenai,60.5544,-151.2583,18.98,79,90,3.6,US,1612490172
522,galle,6.0367,80.217,75.72,87,45,3.07,LK,1612490640
523,khani,41.9563,42.9566,46.38,65,90,3.6,GE,1612490640
524,road town,18.4167,-64.6167,78.78,83,40,4.12,VG,1612490640
525,caceres,39.522,-6.3748,46.97,94,100,0.45,ES,1612490640
526,mao,39.8885,4.2658,49.98,100,0,3.09,ES,1612490221
527,mandera,3.9366,41.867,70.63,80,0,3.64,KE,1612490179
528,turayf,31.6725,38.6637,46.38,100,75,3.09,SA,1612490641
529,seydi,39.4816,62.9137,46.38,71,21,5.2,TM,1612490641
530,rocha,-34.4833,-54.3333,66.04,72,100,7.23,UY,1612490641
531,phan thiet,10.9333,108.1,79.84,59,16,2.3,VN,1612490641
532,zorya,45.9908,29.6967,34.99,83,0,7.05,UA,1612490641
533,tomatlan,19.9333,-105.25,67.04,78,0,0.92,MX,1612490641
534,hamadan,34.7992,48.5146,39.79,75,100,3.13,IR,1612490642
535,venice,27.0998,-82.4543,51.98,76,1,2.32,US,1612490642
536,guiyang,26.5833,106.7167,46.38,87,90,2.0,CN,1612490562
537,bulgan,48.8125,103.5347,15.4,87,31,3.42,MN,1612490215
538,amurzet,47.6967,131.0981,-5.05,83,98,1.25,RU,1612490642
539,kayerkan,69.3497,87.7602,-26.95,85,94,0.37,RU,1612490643
540,san francisco,37.7749,-122.4194,55.38,38,20,5.14,US,1612490479
541,macia,-25.0269,33.0989,74.35,95,99,0.97,MZ,1612490643
542,lagdo,9.05,13.7333,71.38,21,0,1.13,CM,1612490643
543,samarai,-10.6167,150.6667,83.93,71,36,1.82,PG,1612490159
544,cabatuan,10.8794,122.486,82.02,77,82,6.73,PH,1612490643
545,tokur,53.1333,132.9,-24.67,86,91,1.64,RU,1612490643
546,kondinskoye,59.6481,67.41,12.09,96,99,2.94,RU,1612490644
547,san rafael,-34.6177,-68.3301,75.36,26,0,3.07,AR,1612490538
548,porbandar,21.6422,69.6093,58.98,77,0,4.12,IN,1612490644
549,bajil,15.0584,43.2851,69.67,64,0,0.98,YE,1612490644
550,douentza,14.9951,-2.9517,70.18,20,30,2.3,ML,1612490644
